{
"type": "FeatureCollection",
"name": "cemeteries_spatial",
"crs": { "type": "name", "properties": { "name": "urn:ogc:def:crs:OGC:1.3:CRS84" } },
"features": [
{ "type": "Feature", "properties": { "ï..X": -77.298408520132398, "Y": 39.142388195453897, "OBJECTID": 1, "CATEGORY": "CEMETERY", "NAME": "Asbury United Methodist Cemetery", "ADDRESS": "17544 Black Rock Rd", "CITY": "Germantown", "ZIPCODE": 20874, "PHONE": "301-540-2347", "URL": null, "DATA": null, "POINT_X": 1227697.99997234, "POINT_Y": 537578.62511100003 }, "geometry": { "type": "Point", "coordinates": [ -77.29840616, 39.14238033 ] } },
{ "type": "Feature", "properties": { "ï..X": -77.247413538912696, "Y": 39.313700071611599, "OBJECTID": 2, "CATEGORY": "CEMETERY", "NAME": "Bethesda Cemetery", "ADDRESS": "11900 Bethesda Church Rd", "CITY": "Damascus", "ZIPCODE": 20872, "PHONE": "301-253-3222", "URL": null, "DATA": null, "POINT_X": 1242330.4999539701, "POINT_Y": 599931.43745706999 }, "geometry": { "type": "Point", "coordinates": [ -77.24741118, 39.31369217 ] } },
{ "type": "Feature", "properties": { "ï..X": -77.021952737582694, "Y": 39.090857889402301, "OBJECTID": 3, "CATEGORY": "CEMETERY", "NAME": "Bonifant Cemetery", "ADDRESS": "14504 Pebblestone Dr", "CITY": "Silver Spring", "ZIPCODE": 20905, "PHONE": " ", "URL": null, "DATA": null, "POINT_X": 1306103.12490937, "POINT_Y": 518672.90630938997 }, "geometry": { "type": "Point", "coordinates": [ -77.02195047, 39.09085002 ] } },
{ "type": "Feature", "properties": { "ï..X": -77.315068445496493, "Y": 39.181981462597697, "OBJECTID": 4, "CATEGORY": "CEMETERY", "NAME": "Boyds Presbyterian Cemetery", "ADDRESS": "19901 White Ground Rd", "CITY": "Boyds", "ZIPCODE": 20841, "PHONE": "301-540-2544", "URL": null, "DATA": null, "POINT_X": 1223022.62511999, "POINT_Y": 552015.06237244001 }, "geometry": { "type": "Point", "coordinates": [ -77.31506608, 39.18197359 ] } },
{ "type": "Feature", "properties": { "ï..X": -77.313006195518597, "Y": 39.277307916241099, "OBJECTID": 5, "CATEGORY": "CEMETERY", "NAME": "Christian Cemetery", "ADDRESS": "25621 Frederick Rd", "CITY": "Clarksburg", "ZIPCODE": 20871, "PHONE": " ", "URL": null, "DATA": null, "POINT_X": 1223726.25008065, "POINT_Y": 586733.24992476997 }, "geometry": { "type": "Point", "coordinates": [ -77.31300382, 39.27730002 ] } },
{ "type": "Feature", "properties": { "ï..X": -77.286154430744702, "Y": 39.102601434774598, "OBJECTID": 6, "CATEGORY": "CEMETERY", "NAME": "Darnestown United Presbyterian Cemetery", "ADDRESS": "15120 Turkey Foot Rd", "CITY": "Gaithersburg", "ZIPCODE": 20878, "PHONE": "301-948-9127", "URL": null, "DATA": null, "POINT_X": 1231128.1250315399, "POINT_Y": 523076.59373749001 }, "geometry": { "type": "Point", "coordinates": [ -77.28615208, 39.10259357 ] } },
{ "type": "Feature", "properties": { "ï..X": -77.0739995050468, "Y": 39.083121730716798, "OBJECTID": 7, "CATEGORY": "CEMETERY", "NAME": "Gate of Heaven Cemetery", "ADDRESS": "13801  Georgia Ave", "CITY": "Silver Spring", "ZIPCODE": 20906, "PHONE": "301-871-1300", "URL": null, "DATA": null, "POINT_X": 1291328.37494361, "POINT_Y": 515863.06259476999 }, "geometry": { "type": "Point", "coordinates": [ -77.07399722, 39.08311387 ] } },
{ "type": "Feature", "properties": { "ï..X": -77.173571786213202, "Y": 39.207071334262103, "OBJECTID": 8, "CATEGORY": "CEMETERY", "NAME": "Goshen Mennonite Cemetery", "ADDRESS": "8410 Brink Rd", "CITY": "Gaithersburg", "ZIPCODE": 20882, "PHONE": "301-926-3835", "URL": null, "DATA": null, "POINT_X": 1263149.50003736, "POINT_Y": 561045.99998085003 }, "geometry": { "type": "Point", "coordinates": [ -77.17356946, 39.20706345 ] } },
{ "type": "Feature", "properties": { "ï..X": -77.037811664955996, "Y": 39.005514508415203, "OBJECTID": 9, "CATEGORY": "CEMETERY", "NAME": "Grace Episcopal Cemetery", "ADDRESS": "1607 Grace Church Rd", "CITY": "Silver Spring", "ZIPCODE": 20910, "PHONE": "301-588-3550", "URL": null, "DATA": null, "POINT_X": 1301589.0001051601, "POINT_Y": 487591.50007244002 }, "geometry": { "type": "Point", "coordinates": [ -77.03780939, 39.00550666 ] } },
{ "type": "Feature", "properties": { "ï..X": -77.314146670152496, "Y": 39.285366923959899, "OBJECTID": 10, "CATEGORY": "CEMETERY", "NAME": "Hyattstown Cemetery", "ADDRESS": "26121 Frederick Rd", "CITY": "Hyattstown", "ZIPCODE": 20871, "PHONE": "301-831-1194", "URL": null, "DATA": null, "POINT_X": 1223413.5000003499, "POINT_Y": 589669.68743150996 }, "geometry": { "type": "Point", "coordinates": [ -77.31414429, 39.28535903 ] } },
{ "type": "Feature", "properties": { "ï..X": -77.414788139837398, "Y": 39.179957091299201, "OBJECTID": 11, "CATEGORY": "CEMETERY", "NAME": "Monocacy Cemetery", "ADDRESS": "19801 Darnestown Rd", "CITY": "Poolesville", "ZIPCODE": 20839, "PHONE": " ", "URL": null, "DATA": null, "POINT_X": 1194752.24992566, "POINT_Y": 551390.75005186 }, "geometry": { "type": "Point", "coordinates": [ -77.41478574, 39.17994922 ] } },
{ "type": "Feature", "properties": { "ï..X": -77.198611248659404, "Y": 39.318868053266499, "OBJECTID": 12, "CATEGORY": "CEMETERY", "NAME": "First Church of God Cemetery", "ADDRESS": "28201 Kemptown Rd", "CITY": "Damascus", "ZIPCODE": 20872, "PHONE": " ", "URL": null, "DATA": null, "POINT_X": 1256142.7500788399, "POINT_Y": 601780.06261079002 }, "geometry": { "type": "Point", "coordinates": [ -77.19860891, 39.31886015 ] } },
{ "type": "Feature", "properties": { "ï..X": -77.416724438630993, "Y": 39.2271028935277, "OBJECTID": 13, "CATEGORY": "CEMETERY", "NAME": "Mount Pleasant Cemetary", "ADDRESS": "22691 Mt Ephraim Rd", "CITY": "Dickerson", "ZIPCODE": 20842, "PHONE": " ", "URL": null, "DATA": null, "POINT_X": 1194281.75008522, "POINT_Y": 568564.68747584999 }, "geometry": { "type": "Point", "coordinates": [ -77.41672204, 39.22709501 ] } },
{ "type": "Feature", "properties": { "ï..X": -77.243058314354897, "Y": 39.195740351567302, "OBJECTID": 14, "CATEGORY": "CEMETERY", "NAME": "Neelsville Presbyterian Cemetery", "ADDRESS": "20701 Frederick Rd", "CITY": "Germantown", "ZIPCODE": 20876, "PHONE": "301-972-3916", "URL": null, "DATA": null, "POINT_X": 1243448.3748990099, "POINT_Y": 556963.93738505 }, "geometry": { "type": "Point", "coordinates": [ -77.24305597, 39.19573247 ] } },
{ "type": "Feature", "properties": { "ï..X": -77.106233691476007, "Y": 39.064048158254501, "OBJECTID": 15, "CATEGORY": "CEMETERY", "NAME": "Parklawn Cemetery and Menorah Gardens", "ADDRESS": "12800  Veirs Mill Rd", "CITY": "Rockville", "ZIPCODE": 20852, "PHONE": "301-881-2151", "URL": null, "DATA": null, "POINT_X": 1282170.2498790801, "POINT_Y": 508925.28134031 }, "geometry": { "type": "Point", "coordinates": [ -77.1062314, 39.0640403 ] } },
{ "type": "Feature", "properties": { "ï..X": -77.226229586321296, "Y": 39.006618462216203, "OBJECTID": 16, "CATEGORY": "CEMETERY", "NAME": "St Gabriel Cemetery", "ADDRESS": "10706 Alloway Dr", "CITY": "Potomac", "ZIPCODE": 20854, "PHONE": " ", "URL": null, "DATA": null, "POINT_X": 1248047.1251113, "POINT_Y": 488071.00010488997 }, "geometry": { "type": "Point", "coordinates": [ -77.22622726, 39.00661062 ] } },
{ "type": "Feature", "properties": { "ï..X": -77.068032934958296, "Y": 39.154762005587799, "OBJECTID": 17, "CATEGORY": "CEMETERY", "NAME": "St Johns Episcopal Cemetery", "ADDRESS": "3427 Olney Laytonsville Rd", "CITY": "Olney", "ZIPCODE": 20832, "PHONE": "301-774-6999", "URL": null, "DATA": null, "POINT_X": 1293041.5000652, "POINT_Y": 541954.25007506995 }, "geometry": { "type": "Point", "coordinates": [ -77.06803065, 39.15475413 ] } },
{ "type": "Feature", "properties": { "ï..X": -77.027380080411803, "Y": 39.1933435844605, "OBJECTID": 18, "CATEGORY": "CEMETERY", "NAME": "St Lukes Episcopal Cemetery", "ADDRESS": "1001 Brighton Dam Rd", "CITY": "Brookeville", "ZIPCODE": 20833, "PHONE": " ", "URL": null, "DATA": null, "POINT_X": 1304573.8751159401, "POINT_Y": 556000.43760814995 }, "geometry": { "type": "Point", "coordinates": [ -77.0273778, 39.1933357 ] } },
{ "type": "Feature", "properties": { "ï..X": -77.3204380362357, "Y": 39.177850060527703, "OBJECTID": 19, "CATEGORY": "CEMETERY", "NAME": "St Marks Cemetery", "ADDRESS": "19620  White Ground Rd", "CITY": "Boyds", "ZIPCODE": 20841, "PHONE": "301-916-6028", "URL": null, "DATA": null, "POINT_X": 1221495.2500145701, "POINT_Y": 550515.62505904003 }, "geometry": { "type": "Point", "coordinates": [ -77.32043567, 39.17784219 ] } },
{ "type": "Feature", "properties": { "ï..X": -77.380778642580196, "Y": 39.220104540154502, "OBJECTID": 20, "CATEGORY": "CEMETERY", "NAME": "St Marys Catholic Cemetery", "ADDRESS": "18230 Barnesville Rd", "CITY": "Barnesville", "ZIPCODE": 20838, "PHONE": "301-972-8660", "URL": null, "DATA": null, "POINT_X": 1204453.9999507, "POINT_Y": 565971.25003343995 }, "geometry": { "type": "Point", "coordinates": [ -77.38077625, 39.22009666 ] } },
{ "type": "Feature", "properties": { "ï..X": -77.126756421066602, "Y": 39.083416549406401, "OBJECTID": 21, "CATEGORY": "CEMETERY", "NAME": "St Marys Cemetery (larger)", "ADDRESS": "1251 Baltimore Rd", "CITY": "Rockville", "ZIPCODE": 20851, "PHONE": " ", "URL": null, "DATA": null, "POINT_X": 1276352.87489766, "POINT_Y": 515986.90617889003 }, "geometry": { "type": "Point", "coordinates": [ -77.12675412, 39.08340869 ] } },
{ "type": "Feature", "properties": { "ï..X": -77.383708819129296, "Y": 39.097893367867698, "OBJECTID": 22, "CATEGORY": "CEMETERY", "NAME": "St Paul Community Cemetery", "ADDRESS": "14730 Sugarland La", "CITY": "Poolesville", "ZIPCODE": 20837, "PHONE": " ", "URL": null, "DATA": null, "POINT_X": 1203436.7499017499, "POINT_Y": 521463.43738398998 }, "geometry": { "type": "Point", "coordinates": [ -77.38370643, 39.09788551 ] } },
{ "type": "Feature", "properties": { "ï..X": -77.143156739445004, "Y": 39.213448460653197, "OBJECTID": 23, "CATEGORY": "CEMETERY", "NAME": "St Paul United Methodist Cemetery", "ADDRESS": "21720 Laytonsville Rd", "CITY": "Laytonsville", "ZIPCODE": 20882, "PHONE": "301-963-2185", "URL": null, "DATA": null, "POINT_X": 1271771.75002939, "POINT_Y": 563353.75012700004 }, "geometry": { "type": "Point", "coordinates": [ -77.14315442, 39.21344057 ] } },
{ "type": "Feature", "properties": { "ï..X": -77.057634677272802, "Y": 39.178386373214799, "OBJECTID": 24, "CATEGORY": "CEMETERY", "NAME": "Salem United Methodist Cemetery", "ADDRESS": "13 High St", "CITY": "Brookeville", "ZIPCODE": 20833, "PHONE": "301-774-7772", "URL": null, "DATA": null, "POINT_X": 1295995.62512395, "POINT_Y": 550556.68745908001 }, "geometry": { "type": "Point", "coordinates": [ -77.05763239, 39.17837849 ] } },
{ "type": "Feature", "properties": { "ï..X": -77.3443620909852, "Y": 39.2612094135918, "OBJECTID": 25, "CATEGORY": "CEMETERY", "NAME": "Sugar Loaf Mountain Christian Cemetery", "ADDRESS": "24700 Old Hundred Rd", "CITY": "Dickerson", "ZIPCODE": 20842, "PHONE": " ", "URL": null, "DATA": null, "POINT_X": 1214827.74997636, "POINT_Y": 580901.68742334004 }, "geometry": { "type": "Point", "coordinates": [ -77.34435971, 39.26120152 ] } },
{ "type": "Feature", "properties": { "ï..X": -77.125854499241697, "Y": 39.083875788534101, "OBJECTID": 26, "CATEGORY": "CEMETERY", "NAME": "Historic Rockville Cemetery", "ADDRESS": "1520 Baltimore Rd", "CITY": "Rockville", "ZIPCODE": 20851, "PHONE": " ", "URL": null, "DATA": null, "POINT_X": 1276609.1250099, "POINT_Y": 516153.81254704 }, "geometry": { "type": "Point", "coordinates": [ -77.12585219, 39.08386793 ] } },
{ "type": "Feature", "properties": { "ï..X": -76.949112834404801, "Y": 39.109682175243499, "OBJECTID": 27, "CATEGORY": "CEMETERY", "NAME": "Union Cemetery", "ADDRESS": "2939 Spencerville Rd", "CITY": "Burtonsville", "ZIPCODE": 20866, "PHONE": " ", "URL": null, "DATA": null, "POINT_X": 1326773.5000966201, "POINT_Y": 525532.24993178004 }, "geometry": { "type": "Point", "coordinates": [ -76.94911058, 39.1096743 ] } },
{ "type": "Feature", "properties": { "ï..X": -76.964891265152801, "Y": 39.124198606336698, "OBJECTID": 28, "CATEGORY": "CEMETERY", "NAME": "Mount Calvary Methodist Cemetery", "ADDRESS": "16400 Batson Rd", "CITY": "Spencerville", "ZIPCODE": 20868, "PHONE": " ", "URL": null, "DATA": null, "POINT_X": 1322294.2499164401, "POINT_Y": 530817.24987269996 }, "geometry": { "type": "Point", "coordinates": [ -76.96488901, 39.12419073 ] } },
{ "type": "Feature", "properties": { "ï..X": -77.233476614863605, "Y": 39.240895504857001, "OBJECTID": 29, "CATEGORY": "CEMETERY", "NAME": "Christ Lutheran Cemetery", "ADDRESS": "23425 Davis Mill Rd", "CITY": "Germantown", "ZIPCODE": 20876, "PHONE": " ", "URL": null, "DATA": null, "POINT_X": 1246205.9999895799, "POINT_Y": 573403.43743236002 }, "geometry": { "type": "Point", "coordinates": [ -77.23347427, 39.24088761 ] } },
{ "type": "Feature", "properties": { "ï..X": -76.933541678556296, "Y": 39.1173238763838, "OBJECTID": 30, "CATEGORY": "CEMETERY", "NAME": "Columbia Primitive Baptist Cemetery", "ADDRESS": "15900 Old Columbia Pik", "CITY": "Burtonsville", "ZIPCODE": 20866, "PHONE": "301-421-1580", "URL": null, "DATA": null, "POINT_X": 1331189.87488473, "POINT_Y": 528318.31252637005 }, "geometry": { "type": "Point", "coordinates": [ -76.93353943, 39.117316 ] } },
{ "type": "Feature", "properties": { "ï..X": -77.202179754547998, "Y": 39.286609787764, "OBJECTID": 31, "CATEGORY": "CEMETERY", "NAME": "Damascus Methodist Cemetery", "ADDRESS": "26400 Woodfield Rd", "CITY": "Damascus", "ZIPCODE": 20872, "PHONE": " ", "URL": null, "DATA": null, "POINT_X": 1255107.12511787, "POINT_Y": 590032.74995984999 }, "geometry": { "type": "Point", "coordinates": [ -77.20217741, 39.28660189 ] } },
{ "type": "Feature", "properties": { "ï..X": -77.203720854016197, "Y": 39.145227121231102, "OBJECTID": 32, "CATEGORY": "CEMETERY", "NAME": "Forest Oak Cemetery", "ADDRESS": "304 N Frederick Ave", "CITY": "Gaithersburg", "ZIPCODE": 20877, "PHONE": " ", "URL": null, "DATA": null, "POINT_X": 1254556.00012536, "POINT_Y": 538538.75003988994 }, "geometry": { "type": "Point", "coordinates": [ -77.20371852, 39.14521925 ] } },
{ "type": "Feature", "properties": { "ï..X": -76.988130716792895, "Y": 39.095635820780998, "OBJECTID": 33, "CATEGORY": "CEMETERY", "NAME": "Good Hope Union United Methodist Cemetery", "ADDRESS": "14655  Good Hope Rd", "CITY": "Colesville", "ZIPCODE": 20905, "PHONE": "301-384-5552", "URL": null, "DATA": null, "POINT_X": 1315702.62495031, "POINT_Y": 520412.56250300998 }, "geometry": { "type": "Point", "coordinates": [ -76.98812846, 39.09562795 ] } },
{ "type": "Feature", "properties": { "ï..X": -77.071182787682702, "Y": 39.1220912817897, "OBJECTID": 34, "CATEGORY": "CEMETERY", "NAME": "Judean Memorial Gardens Cemetery", "ADDRESS": "16225 Batchellors Forest Rd", "CITY": "Olney", "ZIPCODE": 20832, "PHONE": "301-384-1000", "URL": null, "DATA": null, "POINT_X": 1292138.9999683599, "POINT_Y": 530055.68750399002 }, "geometry": { "type": "Point", "coordinates": [ -77.0711805, 39.12208341 ] } },
{ "type": "Feature", "properties": { "ï..X": -76.937219128391405, "Y": 39.107804056621397, "OBJECTID": 35, "CATEGORY": "CEMETERY", "NAME": "Liberty Grove United Methodist Cemetery (Merson)", "ADDRESS": "3543  Spencerville Rd", "CITY": "Burtonsville", "ZIPCODE": 20866, "PHONE": " ", "URL": null, "DATA": null, "POINT_X": 1330148.87494776, "POINT_Y": 524850.31252313999 }, "geometry": { "type": "Point", "coordinates": [ -76.93721688, 39.10779618 ] } },
{ "type": "Feature", "properties": { "ï..X": -77.143227124235594, "Y": 39.251408997656299, "OBJECTID": 36, "CATEGORY": "CEMETERY", "NAME": "Mount Tabor United Methodist Cemetery", "ADDRESS": "24101 Laytonsville Rd", "CITY": "Gaithersburg", "ZIPCODE": 20882, "PHONE": " ", "URL": null, "DATA": null, "POINT_X": 1271773.5000453901, "POINT_Y": 577180.00012387999 }, "geometry": { "type": "Point", "coordinates": [ -77.1432248, 39.2514011 ] } },
{ "type": "Feature", "properties": { "ï..X": -77.237647326298102, "Y": 39.284030560645803, "OBJECTID": 37, "CATEGORY": "CEMETERY", "NAME": "Mountain View United Methodist Cemetery", "ADDRESS": "11501 Mountain View Rd", "CITY": "Damascus", "ZIPCODE": 20872, "PHONE": "301-253-2264", "URL": null, "DATA": null, "POINT_X": 1245065.62494852, "POINT_Y": 589117.50003899995 }, "geometry": { "type": "Point", "coordinates": [ -77.23764498, 39.28402266 ] } },
{ "type": "Feature", "properties": { "ï..X": -77.050924414658098, "Y": 39.015429730793301, "OBJECTID": 38, "CATEGORY": "CEMETERY", "NAME": "Our Lady of Poland Cemetery", "ADDRESS": "9700 Rosensteel Ave", "CITY": "Silver Spring", "ZIPCODE": 20910, "PHONE": "301-589-1857", "URL": null, "DATA": null, "POINT_X": 1297864.74998969, "POINT_Y": 491204.50001180999 }, "geometry": { "type": "Point", "coordinates": [ -77.05092214, 39.01542188 ] } },
{ "type": "Feature", "properties": { "ï..X": -76.978178043473307, "Y": 39.114980307051901, "OBJECTID": 39, "CATEGORY": "CEMETERY", "NAME": "Round Oak Missionary Baptist Cemetery", "ADDRESS": "15812 Good Hope Rd", "CITY": "Silver Spring", "ZIPCODE": 20905, "PHONE": "301-384-3199", "URL": null, "DATA": null, "POINT_X": 1318525.62501693, "POINT_Y": 527458.62510157004 }, "geometry": { "type": "Point", "coordinates": [ -76.97817578, 39.11497243 ] } },
{ "type": "Feature", "properties": { "ï..X": -77.025099257269403, "Y": 39.147813117181002, "OBJECTID": 40, "CATEGORY": "CEMETERY", "NAME": "Sandy Spring Friends Meeting House Cemetery", "ADDRESS": "17801 Meetinghouse Rd", "CITY": "Sandy Spring", "ZIPCODE": 20860, "PHONE": "301-774-9792", "URL": null, "DATA": null, "POINT_X": 1305215.7500605399, "POINT_Y": 539417.12495271 }, "geometry": { "type": "Point", "coordinates": [ -77.02509698, 39.14780524 ] } },
{ "type": "Feature", "properties": { "ï..X": -77.145744398558705, "Y": 39.082002843979097, "OBJECTID": 41, "CATEGORY": "CEMETERY", "NAME": "St Marys Cemetery", "ADDRESS": "520 Veirs Mill Rd", "CITY": "Rockville", "ZIPCODE": 20852, "PHONE": "301-762-4179", "URL": null, "DATA": null, "POINT_X": 1270962.1249406401, "POINT_Y": 515480.06253042002 }, "geometry": { "type": "Point", "coordinates": [ -77.14574209, 39.08199498 ] } },
{ "type": "Feature", "properties": { "ï..X": -77.080369306299204, "Y": 39.110068925566502, "OBJECTID": 42, "CATEGORY": "CEMETERY", "NAME": "Mount Pleasant Episcopal Cemetary", "ADDRESS": "4101 Muncaster Mill Rd", "CITY": "Rockville", "ZIPCODE": 20850, "PHONE": " ", "URL": null, "DATA": null, "POINT_X": 1289528.8749099299, "POINT_Y": 525679.12506790995 }, "geometry": { "type": "Point", "coordinates": [ -77.08036702, 39.11006106 ] } },
{ "type": "Feature", "properties": { "ï..X": -77.2327461238729, "Y": 39.210744158531497, "OBJECTID": 43, "CATEGORY": "CEMETERY", "NAME": "All Souls Cemetary", "ADDRESS": "11401 Brink Rd", "CITY": "Germantown", "ZIPCODE": 20876, "PHONE": "301-428-1995", "URL": null, "DATA": null, "POINT_X": 1246384.8984217499, "POINT_Y": 562421.04407813004 }, "geometry": { "type": "Point", "coordinates": [ -77.23274378, 39.21073627 ] } },
{ "type": "Feature", "properties": { "ï..X": -77.382940009302899, "Y": 39.222047166839403, "OBJECTID": 44, "CATEGORY": "CEMETERY", "NAME": "Barnesville Methodist Cemetery", "ADDRESS": "18317 Barnesville Rd", "CITY": "Barnesville", "ZIPCODE": 20838, "PHONE": "", "URL": null, "DATA": null, "POINT_X": 1203844.62574213, "POINT_Y": 566681.35921809997 }, "geometry": { "type": "Point", "coordinates": [ -77.38293762, 39.22203929 ] } },
{ "type": "Feature", "properties": { "ï..X": -77.382284059572299, "Y": 39.2227833231576, "OBJECTID": 45, "CATEGORY": "CEMETERY", "NAME": "Hays Family Cemetery", "ADDRESS": "22310 W Harris Rd", "CITY": "Barnesville", "ZIPCODE": 20838, "PHONE": "", "URL": null, "DATA": null, "POINT_X": 1204031.5822862999, "POINT_Y": 566948.70488235005 }, "geometry": { "type": "Point", "coordinates": [ -77.38228167, 39.22277544 ] } },
{ "type": "Feature", "properties": { "ï..X": -77.097881557301903, "Y": 39.010918816710202, "OBJECTID": 46, "CATEGORY": "CEMETERY", "NAME": "Bethesda Presbyterian Cemetery", "ADDRESS": "9400 Rockville Pik", "CITY": "Bethesda", "ZIPCODE": 20814, "PHONE": "", "URL": null, "DATA": null, "POINT_X": 1284520.98549727, "POINT_Y": 489572.46980229003 }, "geometry": { "type": "Point", "coordinates": [ -77.09787927, 39.01091097 ] } },
{ "type": "Feature", "properties": { "ï..X": -76.936809814611493, "Y": 39.127747860915697, "OBJECTID": 47, "CATEGORY": "CEMETERY", "NAME": "Burton Family Cemetery", "ADDRESS": "3800 Bell Rd", "CITY": "Burtonsville ", "ZIPCODE": 20866, "PHONE": "", "URL": null, "DATA": null, "POINT_X": 1330259.9950758601, "POINT_Y": 532114.23496191006 }, "geometry": { "type": "Point", "coordinates": [ -76.93680757, 39.12773998 ] } },
{ "type": "Feature", "properties": { "ï..X": -77.237786336261095, "Y": 39.301896497263698, "OBJECTID": 48, "CATEGORY": "CEMETERY", "NAME": "Burdette/Gue Family Cemetery", "ADDRESS": "27100 Purdum Rd", "CITY": "Damascus", "ZIPCODE": 20872, "PHONE": "", "URL": null, "DATA": null, "POINT_X": 1245043.2272524999, "POINT_Y": 595624.94324506004 }, "geometry": { "type": "Point", "coordinates": [ -77.23778398, 39.30188859 ] } },
{ "type": "Feature", "properties": { "ï..X": -77.279800584002103, "Y": 39.241377767062801, "OBJECTID": 49, "CATEGORY": "CEMETERY", "NAME": "Clarksburg United Methodist Church Cemetery", "ADDRESS": "23425 Spire St", "CITY": "Clarksburg", "ZIPCODE": 20871, "PHONE": "", "URL": null, "DATA": null, "POINT_X": 1233086.1579293599, "POINT_Y": 573615.97528856003 }, "geometry": { "type": "Point", "coordinates": [ -77.27979822, 39.24136988 ] } },
{ "type": "Feature", "properties": { "ï..X": -77.006566748232004, "Y": 39.074663715965599, "OBJECTID": 50, "CATEGORY": "CEMETERY", "NAME": "Colesville Cemetery", "ADDRESS": "61 Randolph Rd", "CITY": "Colesville", "ZIPCODE": 20904, "PHONE": "", "URL": null, "DATA": null, "POINT_X": 1310469.7158894299, "POINT_Y": 512774.10361589998 }, "geometry": { "type": "Point", "coordinates": [ -77.00656448, 39.07465585 ] } },
{ "type": "Feature", "properties": { "ï..X": -77.350795650903507, "Y": 39.247098379165898, "OBJECTID": 51, "CATEGORY": "CEMETERY", "NAME": "Comus Seventh Day Adventist Cemetery", "ADDRESS": "16830 Comus Rd", "CITY": "Comus", "ZIPCODE": 20842, "PHONE": "", "URL": null, "DATA": null, "POINT_X": 1212986.34402264, "POINT_Y": 575769.01618656004 }, "geometry": { "type": "Point", "coordinates": [ -77.35079327, 39.24709049 ] } },
{ "type": "Feature", "properties": { "ï..X": -77.244800346399401, "Y": 39.113939197674199, "OBJECTID": 52, "CATEGORY": "CEMETERY", "NAME": "Mount of Olives Cemetery", "ADDRESS": "11810 Darnestown Rd", "CITY": "Gaithersburg", "ZIPCODE": 20878, "PHONE": "", "URL": null, "DATA": null, "POINT_X": 1242874.76824248, "POINT_Y": 527171.83034930006 }, "geometry": { "type": "Point", "coordinates": [ -77.244798, 39.11393133 ] } },
{ "type": "Feature", "properties": { "ï..X": -77.166246079005901, "Y": 39.278031107506699, "OBJECTID": 53, "CATEGORY": "CEMETERY", "NAME": "Mount Lebanon Fellowship Cemetery", "ADDRESS": "8115 Damascus Rd", "CITY": "Damascus", "ZIPCODE": 20882, "PHONE": "", "URL": null, "DATA": null, "POINT_X": 1265272.4281673401, "POINT_Y": 586887.60256491997 }, "geometry": { "type": "Point", "coordinates": [ -77.16624375, 39.27802321 ] } },
{ "type": "Feature", "properties": { "ï..X": -77.158255951011, "Y": 39.115075438171303, "OBJECTID": 54, "CATEGORY": "CEMETERY", "NAME": "Crabbe Family Burying Ground", "ADDRESS": "15806 Derwood Rd", "CITY": "Derwood", "ZIPCODE": 20855, "PHONE": "", "URL": null, "DATA": null, "POINT_X": 1267431.40775335, "POINT_Y": 527531.45556564 }, "geometry": { "type": "Point", "coordinates": [ -77.15825363, 39.11506757 ] } },
{ "type": "Feature", "properties": { "ï..X": -77.114157887809299, "Y": 39.246633515849403, "OBJECTID": 55, "CATEGORY": "CEMETERY", "NAME": "Dorsey Family Cemetery", "ADDRESS": "5701 Damascus Rd", "CITY": "Etichison", "ZIPCODE": 20882, "PHONE": "", "URL": null, "DATA": null, "POINT_X": 1280003.4364370599, "POINT_Y": 575429.03077824996 }, "geometry": { "type": "Point", "coordinates": [ -77.11415558, 39.24662562 ] } },
{ "type": "Feature", "properties": { "ï..X": -77.421970386662295, "Y": 39.157953956373099, "OBJECTID": 56, "CATEGORY": "CEMETERY", "NAME": "Elijah Methodist Cemetery", "ADDRESS": "18401 Beallsville Rd", "CITY": "Poolesville", "ZIPCODE": 20837, "PHONE": "", "URL": null, "DATA": null, "POINT_X": 1192679.23872373, "POINT_Y": 543386.17839639995 }, "geometry": { "type": "Point", "coordinates": [ -77.42196799, 39.15794609 ] } },
{ "type": "Feature", "properties": { "ï..X": -77.0475236925746, "Y": 39.231383317084898, "OBJECTID": 57, "CATEGORY": "CEMETERY", "NAME": "Elton Cemetery", "ADDRESS": "2251 Triadelphia Lake Rd", "CITY": "Sandy Spring", "ZIPCODE": 20833, "PHONE": "", "URL": null, "DATA": null, "POINT_X": 1298871.9505026301, "POINT_Y": 569857.78187705996 }, "geometry": { "type": "Point", "coordinates": [ -77.0475214, 39.23137542 ] } },
{ "type": "Feature", "properties": { "ï..X": -77.156198229506401, "Y": 39.083495730327002, "OBJECTID": 58, "CATEGORY": "CEMETERY", "NAME": "Rockville Baptist Cemetery", "ADDRESS": "115 W Jefferson St", "CITY": "Rockville", "ZIPCODE": 20850, "PHONE": "", "URL": null, "DATA": null, "POINT_X": 1267784.6104416801, "POINT_Y": 515917.06707481999 }, "geometry": { "type": "Point", "coordinates": [ -77.15619592, 39.08348787 ] } },
{ "type": "Feature", "properties": { "ï..X": -77.152097464181594, "Y": 39.151885426174701, "OBJECTID": 59, "CATEGORY": "CEMETERY", "NAME": "Flowerhill Cemetery", "ADDRESS": "7412 Muncaster Mill Rd", "CITY": "Redland", "ZIPCODE": 20877, "PHONE": "", "URL": null, "DATA": null, "POINT_X": 1269201.115275, "POINT_Y": 540935.28969012003 }, "geometry": { "type": "Point", "coordinates": [ -77.15209515, 39.15187755 ] } },
{ "type": "Feature", "properties": { "ï..X": -77.197380416680105, "Y": 39.310799415313397, "OBJECTID": 60, "CATEGORY": "CEMETERY", "NAME": "Friendship Cemetery", "ADDRESS": "27701 Ridge Rd", "CITY": "Damascus", "ZIPCODE": 20876, "PHONE": "", "URL": null, "DATA": null, "POINT_X": 1256484.6229751499, "POINT_Y": 598840.43099204998 }, "geometry": { "type": "Point", "coordinates": [ -77.19737808, 39.31079151 ] } },
{ "type": "Feature", "properties": { "ï..X": -77.145236937072994, "Y": 39.095354656615697, "OBJECTID": 61, "CATEGORY": "CEMETERY", "NAME": "Lincoln Park", "ADDRESS": "320 Frederick Ave", "CITY": "Lincoln Park", "ZIPCODE": 20850, "PHONE": "", "URL": null, "DATA": null, "POINT_X": 1271113.9127167801, "POINT_Y": 520342.73056693998 }, "geometry": { "type": "Point", "coordinates": [ -77.14523463, 39.09534679 ] } },
{ "type": "Feature", "properties": { "ï..X": -77.301983407416401, "Y": 39.246855914849696, "OBJECTID": 62, "CATEGORY": "CEMETERY", "NAME": "Garden of Remembrance Memoral Park", "ADDRESS": "14321 Comus Rd", "CITY": "Clarksburg", "ZIPCODE": 20871, "PHONE": "", "URL": null, "DATA": null, "POINT_X": 1226809.9467235201, "POINT_Y": 575631.27845843998 }, "geometry": { "type": "Point", "coordinates": [ -77.30198104, 39.24684803 ] } },
{ "type": "Feature", "properties": { "ï..X": -77.306274552604705, "Y": 39.269026182304401, "OBJECTID": 63, "CATEGORY": "CEMETERY", "NAME": "Montgomery Chapel Cemetery", "ADDRESS": "25200 Frederick Rd", "CITY": "Hyattstown", "ZIPCODE": 20871, "PHONE": "", "URL": null, "DATA": null, "POINT_X": 1225621.75779441, "POINT_Y": 583710.34048195998 }, "geometry": { "type": "Point", "coordinates": [ -77.30627218, 39.26901829 ] } },
{ "type": "Feature", "properties": { "ï..X": -77.262785437902906, "Y": 39.224304368259702, "OBJECTID": 64, "CATEGORY": "CEMETERY", "NAME": "John Weslyan Methodist Cemetery", "ADDRESS": "22420 Frederick Rd", "CITY": "Clarksburg", "ZIPCODE": 20871, "PHONE": "", "URL": null, "DATA": null, "POINT_X": 1237887.4374218299, "POINT_Y": 567383.09336275002 }, "geometry": { "type": "Point", "coordinates": [ -77.26278308, 39.22429648 ] } },
{ "type": "Feature", "properties": { "ï..X": -77.235432668529896, "Y": 39.2703398625981, "OBJECTID": 65, "CATEGORY": "CEMETERY", "NAME": "Kingstead Farm Cemetery", "ADDRESS": "11411 Kingstead Rd", "CITY": "Damascus", "ZIPCODE": 20872, "PHONE": "", "URL": null, "DATA": null, "POINT_X": 1245679.6432530901, "POINT_Y": 584129.31238635001 }, "geometry": { "type": "Point", "coordinates": [ -77.23543032, 39.27033197 ] } },
{ "type": "Feature", "properties": { "ï..X": -77.277987452398406, "Y": 39.161970010641397, "OBJECTID": 66, "CATEGORY": "CEMETERY", "NAME": "Magers/Mobley Cemetery", "ADDRESS": "18669 Village Fountain Dr", "CITY": "Germantown", "ZIPCODE": 20874, "PHONE": "", "URL": null, "DATA": null, "POINT_X": 1233511.61610576, "POINT_Y": 544692.37026961998 }, "geometry": { "type": "Point", "coordinates": [ -77.2779851, 39.16196214 ] } },
{ "type": "Feature", "properties": { "ï..X": -77.265516431852504, "Y": 39.095117375184699, "OBJECTID": 67, "CATEGORY": "CEMETERY", "NAME": "Poplar Grove Church Cemetery", "ADDRESS": "14625 Jones La", "CITY": "Darnestown", "ZIPCODE": 20878, "PHONE": "", "URL": null, "DATA": null, "POINT_X": 1236976.89994899, "POINT_Y": 520333.11008692998 }, "geometry": { "type": "Point", "coordinates": [ -77.26551408, 39.09510952 ] } },
{ "type": "Feature", "properties": { "ï..X": -77.1935552031821, "Y": 39.0458898672697, "OBJECTID": 68, "CATEGORY": "CEMETERY", "NAME": "Potomac Methodist Church", "ADDRESS": "9340 Falls Rd", "CITY": "Rockville", "ZIPCODE": 20854, "PHONE": "", "URL": null, "DATA": null, "POINT_X": 1257362.3998719701, "POINT_Y": 502352.57375018997 }, "geometry": { "type": "Point", "coordinates": [ -77.19355288, 39.04588201 ] } },
{ "type": "Feature", "properties": { "ï..X": -77.2200881419529, "Y": 39.240744485313897, "OBJECTID": 69, "CATEGORY": "CEMETERY", "NAME": "Purdum Cemetery", "ADDRESS": "10610 Watkins Rd", "CITY": "Cedar Grove", "ZIPCODE": 20876, "PHONE": "", "URL": null, "DATA": null, "POINT_X": 1249997.90015311, "POINT_Y": 573339.01170429995 }, "geometry": { "type": "Point", "coordinates": [ -77.2200858, 39.24073659 ] } },
{ "type": "Feature", "properties": { "ï..X": -76.964098360054507, "Y": 39.064800399594702, "OBJECTID": 70, "CATEGORY": "CEMETERY", "NAME": "St Marks Episcopal Cemetery", "ADDRESS": "12621 Old Columbia Pik", "CITY": "Silver Spring", "ZIPCODE": 20904, "PHONE": "301-622-5860", "URL": null, "DATA": null, "POINT_X": 1322527.70271666, "POINT_Y": 509183.70847655 }, "geometry": { "type": "Point", "coordinates": [ -76.96409611, 39.06479253 ] } },
{ "type": "Feature", "properties": { "ï..X": -77.081043958223404, "Y": 39.025358660073501, "OBJECTID": 71, "CATEGORY": "CEMETERY", "NAME": "Saint Patricks Cemetery", "ADDRESS": "10318 Summit Ave", "CITY": "Kensington", "ZIPCODE": 20895, "PHONE": "", "URL": null, "DATA": null, "POINT_X": 1289310.0489257299, "POINT_Y": 494826.87390318001 }, "geometry": { "type": "Point", "coordinates": [ -77.08104167, 39.02535081 ] } },
{ "type": "Feature", "properties": { "ï..X": -77.241411929152093, "Y": 39.1504858765432, "OBJECTID": 72, "CATEGORY": "CEMETERY", "NAME": "St Rose of Lima Catholic Church Cemetery", "ADDRESS": "11701 Clopper Rd", "CITY": "Gaithersburg", "ZIPCODE": 20878, "PHONE": "", "URL": null, "DATA": null, "POINT_X": 1243871.39032341, "POINT_Y": 540480.14063369995 }, "geometry": { "type": "Point", "coordinates": [ -77.24140959, 39.150478 ] } },
{ "type": "Feature", "properties": { "ï..X": -77.242691199877299, "Y": 39.1504239297807, "OBJECTID": 73, "CATEGORY": "CEMETERY", "NAME": "Shoemaker Cemetery", "ADDRESS": "11715 Clopper Rd", "CITY": "Gaithersburg ", "ZIPCODE": 20816, "PHONE": "", "URL": null, "DATA": null, "POINT_X": 1243508.5397630699, "POINT_Y": 540458.54037767998 }, "geometry": { "type": "Point", "coordinates": [ -77.24268886, 39.15041606 ] } },
{ "type": "Feature", "properties": { "ï..X": -77.282489034780397, "Y": 39.161455234817502, "OBJECTID": 74, "CATEGORY": "CEMETERY", "NAME": "Trinity United Methodist Church", "ADDRESS": "18951 Germantown Rd", "CITY": "Germantown", "ZIPCODE": 20874, "PHONE": "", "URL": null, "DATA": null, "POINT_X": 1232234.63204057, "POINT_Y": 544508.79804545001 }, "geometry": { "type": "Point", "coordinates": [ -77.28248668, 39.16144736 ] } },
{ "type": "Feature", "properties": { "ï..X": -77.233405243678803, "Y": 39.246047508138901, "OBJECTID": 75, "CATEGORY": "CEMETERY", "NAME": "Salem United Methodist Cemetery", "ADDRESS": "23725 Ridge Rd", "CITY": "Damascus", "ZIPCODE": 20876, "PHONE": "", "URL": null, "DATA": null, "POINT_X": 1246231.0122136101, "POINT_Y": 575279.88185011002 }, "geometry": { "type": "Point", "coordinates": [ -77.05763239, 39.17837849 ] } },
{ "type": "Feature", "properties": { "ï..X": -77.269892534202398, "Y": 39.199867882843598, "OBJECTID": 76, "CATEGORY": "CEMETERY", "NAME": "Waters Cemetery", "ADDRESS": "20960 Mountain Lake Ter", "CITY": "Germantown", "ZIPCODE": 20874, "PHONE": "", "URL": null, "DATA": null, "POINT_X": 1235847.70417193, "POINT_Y": 558488.63985047 }, "geometry": { "type": "Point", "coordinates": [ -77.26989018, 39.19986 ] } },
{ "type": "Feature", "properties": { "ï..X": -77.187840840240696, "Y": 39.244305461262599, "OBJECTID": 77, "CATEGORY": "CEMETERY", "NAME": "Wesley Grove United Methodist Cemetery", "ADDRESS": "23640 Woodfield Rd", "CITY": "Laytonsville", "ZIPCODE": 20882, "PHONE": "", "URL": null, "DATA": null, "POINT_X": 1259134.0345616201, "POINT_Y": 574615.60767348995 }, "geometry": { "type": "Point", "coordinates": [ -77.18783851, 39.24429757 ] } },
{ "type": "Feature", "properties": { "ï..X": -77.124331780092206, "Y": 39.022521781020203, "OBJECTID": 78, "CATEGORY": "CEMETERY", "NAME": "Wildwood Baptist Church Cemetery", "ADDRESS": "10200 Old Georgetown Rd", "CITY": "Bethesda", "ZIPCODE": 20814, "PHONE": "", "URL": null, "DATA": null, "POINT_X": 1277010.9267382701, "POINT_Y": 493807.49547023 }, "geometry": { "type": "Point", "coordinates": [ -77.12432948, 39.02251393 ] } },
{ "type": "Feature", "properties": { "ï..X": -77.101966848748404, "Y": 39.1914729373079, "OBJECTID": 79, "CATEGORY": "CEMETERY", "NAME": "Zion Cemetery", "ADDRESS": "20500 Zion Rd", "CITY": "Laytonsville", "ZIPCODE": 20833, "PHONE": "", "URL": null, "DATA": null, "POINT_X": 1283433.6062962499, "POINT_Y": 555334.08291952999 }, "geometry": { "type": "Point", "coordinates": [ -77.10196455, 39.19146505 ] } },
{ "type": "Feature", "properties": { "ï..X": -77.157166433003894, "Y": 39.092686058760201, "OBJECTID": 80, "CATEGORY": "CEMETERY", "NAME": "Haiti Cemetery", "ADDRESS": "205 Martins La", "CITY": "Rockville", "ZIPCODE": 20850, "PHONE": "", "URL": null, "DATA": null, "POINT_X": 1267726.5012576201, "POINT_Y": 519376.40071004 }, "geometry": { "type": "Point", "coordinates": [ -77.15716412, 39.0926782 ] } },
{ "type": "Feature", "properties": { "ï..X": -77.364424309021402, "Y": 39.255159127310201, "OBJECTID": 81, "CATEGORY": "CEMETERY", "NAME": "Pearre Cemetery", "ADDRESS": "24000 Barley Field Rd", "CITY": "Comus", "ZIPCODE": 20842, "PHONE": "", "URL": null, "DATA": null, "POINT_X": 1209138.3586110601, "POINT_Y": 578720.06694130995 }, "geometry": { "type": "Point", "coordinates": [ -77.36442192, 39.25515124 ] } },
{ "type": "Feature", "properties": { "ï..X": -77.346618545118304, "Y": 39.252406300386603, "OBJECTID": 82, "CATEGORY": "CEMETERY", "NAME": "Mountain Chapel Cemetery", "ADDRESS": "24100 Old Hundred Rd", "CITY": "Barnesville", "ZIPCODE": 20842, "PHONE": "", "URL": null, "DATA": null, "POINT_X": 1214176.6628717501, "POINT_Y": 577697.77881236002 }, "geometry": { "type": "Point", "coordinates": [ -77.34661616, 39.25239841 ] } },
{ "type": "Feature", "properties": { "ï..X": -77.256569147044601, "Y": 39.206371551965297, "OBJECTID": 83, "CATEGORY": "CEMETERY", "NAME": "Pleasant Fields Cemetery", "ADDRESS": "12509 Hawks Nest La", "CITY": "Germantown", "ZIPCODE": 20876, "PHONE": "", "URL": null, "DATA": null, "POINT_X": 1239630.1371994601, "POINT_Y": 560846.53271666996 }, "geometry": { "type": "Point", "coordinates": [ -77.25656679, 39.20636367 ] } },
{ "type": "Feature", "properties": { "ï..X": -77.0708489940872, "Y": 39.240552259800602, "OBJECTID": 84, "CATEGORY": "CEMETERY", "NAME": "Howard Chapel Cemetery", "ADDRESS": "23000 Howard Chapel Rd", "CITY": "Laytonsville", "ZIPCODE": 20833, "PHONE": "", "URL": null, "DATA": null, "POINT_X": 1292267.1858244799, "POINT_Y": 573201.64056817 }, "geometry": { "type": "Point", "coordinates": [ -77.0708467, 39.24054436 ] } },
{ "type": "Feature", "properties": { "ï..X": -77.110149061441106, "Y": 39.230264554498604, "OBJECTID": 85, "CATEGORY": "CEMETERY", "NAME": "Griffith Family Cemetery", "ADDRESS": "5501 Griffith Rd", "CITY": "Laytonsville", "ZIPCODE": 20882, "PHONE": "", "URL": null, "DATA": null, "POINT_X": 1281131.5780061099, "POINT_Y": 569465.61982868996 }, "geometry": { "type": "Point", "coordinates": [ -77.11014675, 39.23025666 ] } },
{ "type": "Feature", "properties": { "ï..X": -77.158127888458594, "Y": 39.209452640665702, "OBJECTID": 86, "CATEGORY": "CEMETERY", "NAME": "Goshen Methodist Cemetery", "ADDRESS": "7700 Brink Rd", "CITY": "Laytonsville", "ZIPCODE": 20882, "PHONE": "", "URL": null, "DATA": null, "POINT_X": 1267527.2861534399, "POINT_Y": 561905.37713365001 }, "geometry": { "type": "Point", "coordinates": [ -77.15812557, 39.20944475 ] } },
{ "type": "Feature", "properties": { "ï..X": -77.345548656098401, "Y": 39.242558177289801, "OBJECTID": 87, "CATEGORY": "CEMETERY", "NAME": "Unknown", "ADDRESS": "16520 Comus Rd", "CITY": "Dickerson", "ZIPCODE": 20842, "PHONE": "", "URL": null, "DATA": null, "POINT_X": 1214466.0608880201, "POINT_Y": 574109.69253701996 }, "geometry": { "type": "Point", "coordinates": [ -77.34554627, 39.24255029 ] } },
{ "type": "Feature", "properties": { "ï..X": -77.4183054226053, "Y": 39.1453203240224, "OBJECTID": 88, "CATEGORY": "CEMETERY", "NAME": "Historic Poolesville Methodist Cemetery", "ADDRESS": "17605 W Willard Rd", "CITY": "Poolesville", "ZIPCODE": 20837, "PHONE": "301-428-8927", "URL": null, "DATA": null, "POINT_X": null, "POINT_Y": null }, "geometry": { "type": "Point", "coordinates": [ -77.41830302, 39.14531246 ] } }
]
}
